{
"type": "FeatureCollection",
"features": [
{ "type": "Feature", "properties": { "id": "A1", "label": "Zamani Microcommunity", "html": "<H3>Zamani Microcommunity</H3><p>Memel, South Africa</p><p>tags</p><p>image</p><p>image credit</p><p>Cohousing and permaculture initiative for rural community development</p><p>a, b, c, d, e</p>" }, "geometry": { "type": "Point", "coordinates": [ 29.56037104, -27.67490453 ] } },
{ "type": "Feature", "properties": { "id": "A3", "label": "Digital Resources in Teaching", "html": "<H3>Digital Resources in Teaching</H3><p>Gautang, Limpopo, South Africa</p><p>tags</p><p>image</p><p>image credit</p><p>Intiative to improve digital tools and resources.</p><p>f, g, h, i, j</p>" }, "geometry": { "type": "Point", "coordinates": [ 28.015402311212998, -26.1648 ] } },
{ "type": "Feature", "properties": { "id": "A2", "label": "MoMConnect Support", "html": "<H3>MoMConnect Support</H3><p>Dikgale, Nobody-Ga-Mothiba, J-Mamabolo, South Africa</p><p>tags</p><p>image</p><p>image credit</p><p>Digital health support to improve maternal and child healthcare</p><p></p>" }, "geometry": { "type": "Point", "coordinates": [ 29.78350467, -23.73337 ] } },
{ "type": "Feature", "properties": { "id": "A4", "label": "Digital Library", "html": "<H3>Digital Library</H3><p>Limpopo, South Africa</p><p>tags</p><p>image</p><p>image credit</p><p>Research into Digital Library </p><p></p>" }, "geometry": { "type": "Point", "coordinates": [ 29.461974408981, -23.894074381957001 ] } },
{ "type": "Feature", "properties": { "id": "A5", "label": "Digital Learning Centres", "html": "<H3>Digital Learning Centres</H3><p>Limpopo, South Africa</p><p>tags</p><p>image</p><p>image credit</p><p>Cisco transforms SA’s libraries into digital learning centres</p><p></p>" }, "geometry": { "type": "Point", "coordinates": [ 29.461974408981, -23.894074381957001 ] } },
{ "type": "Feature", "properties": { "id": "A6", "label": "Agriculture and Tourism Network", "html": "<H3>Agriculture and Tourism Network</H3><p>Thohoyandou, South Africa</p><p>tags</p><p>image</p><p>image credit</p><p>Network for digital entreprenuers</p><p></p>" }, "geometry": { "type": "Point", "coordinates": [ 30.446517054140401, -22.976198598525599 ] } },
{ "type": "Feature", "properties": { "id": "A7", "label": "Fale", "html": "<H3>Fale</H3><p>Samoa</p><p>tags</p><p>image</p><p>image credit</p><p>Reflection on the future of Samoan community resilience to cyclones through the traditional architectural style of the fale</p><p></p>" }, "geometry": { "type": "Point", "coordinates": [ -171.78923203389499, -13.837529827692901 ] } },
{ "type": "Feature", "properties": { "id": "A8", "label": "Social Resilient Housing", "html": "<H3>Social Resilient Housing</H3><p>Upolo, Savai'i, Samoa</p><p>tags</p><p>image</p><p>image credit</p><p>Remediation of housing stock for vulnerable families (ADRA)</p><p></p>" }, "geometry": { "type": "Point", "coordinates": [ -171.78923203389499, -13.837529827692901 ] } },
{ "type": "Feature", "properties": { "id": "A9", "label": "Housing programme for most vulnerable", "html": "<H3>Housing programme for most vulnerable</H3><p>Samoa, Samoa</p><p>tags</p><p>image</p><p>image credit</p><p>Housing programme. The initiative is the result of a negotiated partnership programme.</p><p></p>" }, "geometry": { "type": "Point", "coordinates": [ -171.78923203389499, -13.837529827692901 ] } },
{ "type": "Feature", "properties": { "id": "A10", "label": "Bamboo Fale", "html": "<H3>Bamboo Fale</H3><p>Apia, Samoa</p><p>tags</p><p>image</p><p>image credit</p><p>Climate Change Research Centre-proposed design of the office building with considaration of traditional samoa fale constraction</p><p></p>" }, "geometry": { "type": "Point", "coordinates": [ -171.765883064609994, -13.875777455180501 ] } },
{ "type": "Feature", "properties": { "id": "A11", "label": "Urban Climate Change Adaptation ", "html": "<H3>Urban Climate Change Adaptation </H3><p>Samoa, Samoa</p><p>tags</p><p>image</p><p>image credit</p><p>Adaptation to climate change.Connection human wellbeing and ecosystem health.</p><p></p>" }, "geometry": { "type": "Point", "coordinates": [ -171.78923203389499, -13.837529827692901 ] } },
{ "type": "Feature", "properties": { "id": "A12", "label": "Jittu Estate", "html": "<H3>Jittu Estate</H3><p>Suva, Fiji</p><p>tags</p><p>image</p><p>image credit</p><p>Social Housing Initiative</p><p></p>" }, "geometry": { "type": "Point", "coordinates": [ 178.4519522, -18.12875685 ] } },
{ "type": "Feature", "properties": { "id": "A13", "label": "Fiji Incremental Housing", "html": "<H3>Fiji Incremental Housing</H3><p>Suva, Fiji</p><p>tags</p><p>image</p><p>image credit</p><p>Addressing climate change, environmental reflections</p><p></p>" }, "geometry": { "type": "Point", "coordinates": [ 178.4519522, -18.12875685 ] } },
{ "type": "Feature", "properties": { "id": "A14", "label": "Governmanet Housing Initiative", "html": "<H3>Governmanet Housing Initiative</H3><p>Suva, Fiji</p><p>tags</p><p>image</p><p>image credit</p><p>Governmanet Housing Initiative</p><p></p>" }, "geometry": { "type": "Point", "coordinates": [ 178.4519522, -18.12875685 ] } },
{ "type": "Feature", "properties": { "id": "A15", "label": "Fiji Affordable Housing", "html": "<H3>Fiji Affordable Housing</H3><p>Suva, Fiji</p><p>tags</p><p>image</p><p>image credit</p><p>Housing project for the  low- and middle- income families. Access to housing assistance programs.</p><p></p>" }, "geometry": { "type": "Point", "coordinates": [ 178.4519522, -18.12875685 ] } },
{ "type": "Feature", "properties": { "id": "A16", "label": "Fiji Affordable Housing", "html": "<H3>Fiji Affordable Housing</H3><p>Suva, Fiji</p><p>tags</p><p>image</p><p>image credit</p><p>ibid</p><p></p>" }, "geometry": { "type": "Point", "coordinates": [ 178.4519522, -18.12875685 ] } },
{ "type": "Feature", "properties": { "id": "A17", "label": "Fiji Resilient Informal Settlements", "html": "<H3>Fiji Resilient Informal Settlements</H3><p>Suva, Fiji</p><p>tags</p><p>image</p><p>image credit</p><p>Supporting the most vulnerable communities in building adaptive capacity against climate change and disaster risks </p><p></p>" }, "geometry": { "type": "Point", "coordinates": [ 178.4519522, -18.12875685 ] } },
{ "type": "Feature", "properties": { "id": "A18", "label": "Tātānaki Housing Pilot ", "html": "<H3>Tātānaki Housing Pilot </H3><p>Tonga, Tonga</p><p>tags</p><p>image</p><p>image credit</p><p>Co-designed affordable housing</p><p></p>" }, "geometry": { "type": "Point", "coordinates": [ -169.919186053998004, -19.099590370077099 ] } },
{ "type": "Feature", "properties": { "id": "A21", "label": "Eco-Friendly Living", "html": "<H3>Eco-Friendly Living</H3><p>Taylor's Mistake, Aotearoa NZ</p><p>tags</p><p>image</p><p>image credit</p><p>Eco-Friendly Living</p><p></p>" }, "geometry": { "type": "Point", "coordinates": [ 172.7761209, -43.583292816047198 ] } },
{ "type": "Feature", "properties": { "id": "A22", "label": "Pā Reo, Te Wānanga o Raukawa", "html": "<H3>Pā Reo, Te Wānanga o Raukawa</H3><p>Waitapu, Aotearoa NZ</p><p>tags</p><p>image</p><p>image credit</p><p>Sustainable and cultural urban designed and fully certified Living Building</p><p></p>" }, "geometry": { "type": "Point", "coordinates": [ 175.1347528, -40.750817186067003 ] } },
{ "type": "Feature", "properties": { "id": "A23", "label": "The Living Pā", "html": "<H3>The Living Pā</H3><p>Wellington, Aotearoa NZ</p><p>tags</p><p>image</p><p>image credit</p><p>Sustainable and cultural urban designed and fully certified Living Building</p><p></p>" }, "geometry": { "type": "Point", "coordinates": [ 174.767402915351994, -41.2895930921973 ] } },
{ "type": "Feature", "properties": { "id": "A24", "label": "Tjuntjuntjara Community Housing", "html": "<H3>Tjuntjuntjara Community Housing</H3><p>Tjuntjuntjara, Australia</p><p>tags</p><p>image</p><p>image credit</p><p>Sharing plans for Aboriginal housing</p><p></p>" }, "geometry": { "type": "Point", "coordinates": [ 127.097525746176004, -29.3401159366468 ] } },
{ "type": "Feature", "properties": { "id": "A25", "label": "Indigenous Prototype Housing", "html": "<H3>Indigenous Prototype Housing</H3><p>Australia</p><p>tags</p><p>image</p><p>image credit</p><p>initiative project - to create a low-cost version of our modular zero carbon house for indigenous people</p><p></p>" }, "geometry": { "type": "Point", "coordinates": [ 134.635885484934988, -25.028191347902901 ] } },
{ "type": "Feature", "properties": { "id": "A26", "label": "Northern Territrory remote housing program", "html": "<H3>Northern Territrory remote housing program</H3><p>Northern Territory, Australia</p><p>tags</p><p>image</p><p>image credit</p><p>The Northern Territory Government housing programme</p><p></p>" }, "geometry": { "type": "Point", "coordinates": [ 133.851144457418997, -23.6434538908298 ] } },
{ "type": "Feature", "properties": { "id": "A27", "label": "Mobile Technology and Social Media use in a Remote Aboriginal Community", "html": "<H3>Mobile Technology and Social Media use in a Remote Aboriginal Community</H3><p>Yirrkala, Australia</p><p>tags</p><p>image</p><p>image credit</p><p>Exploring the meanings embedded in mobile phones and social media for Yolngu youth in Yirkala in north-east Arnhem Land</p><p></p>" }, "geometry": { "type": "Point", "coordinates": [ 136.89168696939501, -12.250711580600001 ] } },
{ "type": "Feature", "properties": { "id": "A28", "label": "Marlinja Community Solar Project", "html": "<H3>Marlinja Community Solar Project</H3><p>Barkly Tablelands, Australia</p><p>tags</p><p>image</p><p>image credit</p><p>A community-led initiative to improve household and community-wide energy security for residents of Marlinja outstation</p><p></p>" }, "geometry": { "type": "Point", "coordinates": [ 134.988193622358011, -19.074785976614201 ] } },
{ "type": "Feature", "properties": { "id": "A29", "label": "Sustainable Indigenous housing", "html": "<H3>Sustainable Indigenous housing</H3><p>South Australia, Australia</p><p>tags</p><p>image</p><p>image credit</p><p>Sustainable Indigenous housing in regional and remote Australia </p><p></p>" }, "geometry": { "type": "Point", "coordinates": [ 131.144288032153014, -26.158943359512602 ] } },
{ "type": "Feature", "properties": { "id": "A30", "label": "Sustainable Buildings Research Centre", "html": "<H3>Sustainable Buildings Research Centre</H3><p>Wollongong, Australia</p><p>tags</p><p>image</p><p>image credit</p><p> Research Centre Building </p><p></p>" }, "geometry": { "type": "Point", "coordinates": [ 150.899872312039008, -34.400202262867403 ] } },
{ "type": "Feature", "properties": { "id": "A31", "label": "First Steps Count Child and Community Centre", "html": "<H3>First Steps Count Child and Community Centre</H3><p>Taree, Australia</p><p>tags</p><p>image</p><p>image credit</p><p>Centre for children 0-12 years old and families. Living Building Challenge certification project.</p><p></p>" }, "geometry": { "type": "Point", "coordinates": [ 152.443999975641987, -31.8880072084565 ] } },
{ "type": "Feature", "properties": { "id": "A32", "label": "Housing for Aboriginal People", "html": "<H3>Housing for Aboriginal People</H3><p>Australia</p><p>tags</p><p>image</p><p>image credit</p><p>Programme of the Department of Communities and Justice. Providing social housing</p><p></p>" }, "geometry": { "type": "Point", "coordinates": [ 134.635885484934988, -25.028191347902901 ] } },
{ "type": "Feature", "properties": { "id": "A33", "label": "Mobile Phone Use in Australian indigenous communities", "html": "<H3>Mobile Phone Use in Australian indigenous communities</H3><p>Australia</p><p>tags</p><p>image</p><p>image credit</p><p>Mobile phone use in Australian indigenous communities</p><p></p>" }, "geometry": { "type": "Point", "coordinates": [ 134.635885484934988, -25.028191347902901 ] } },
{ "type": "Feature", "properties": { "id": "A34", "label": "Library of Muyinga", "html": "<H3>Library of Muyinga</H3><p>Muyinga, Burundi</p><p>tags</p><p>image</p><p>image credit</p><p>The first library of Muyinga, part of an inclusive school for deaf children.</p><p></p>" }, "geometry": { "type": "Point", "coordinates": [ 30.3354520540992, -2.85367697096066 ] } },
{ "type": "Feature", "properties": { "id": "A35", "label": "RICA (Rwanda Institute for Conservation Agriculture)", "html": "<H3>RICA (Rwanda Institute for Conservation Agriculture)</H3><p>Gashora, Rwanda</p><p>tags</p><p>image</p><p>image credit</p><p>Rwanda Institute for Conservation Agriculture, English-language institution that supports national priorities for agricultural development</p><p></p>" }, "geometry": { "type": "Point", "coordinates": [ 30.260068124307701, -2.27112020956823 ] } },
{ "type": "Feature", "properties": { "id": "A36", "label": "Villa Verde Housing", "html": "<H3>Villa Verde Housing</H3><p>Constitución, Chile</p><p>tags</p><p>image</p><p>image credit</p><p>Villa Verde Housing, incremental housing project </p><p></p>" }, "geometry": { "type": "Point", "coordinates": [ -72.427604242947794, -35.336289288086199 ] } },
{ "type": "Feature", "properties": { "id": "A37", "label": "Reslient Cities", "html": "<H3>Reslient Cities</H3><p>Chile</p><p>tags</p><p>image</p><p>image credit</p><p>Urban development with a special focus on the Housing Emergency Plan</p><p></p>" }, "geometry": { "type": "Point", "coordinates": [ -70.756760004590603, -33.480801852011702 ] } },
{ "type": "Feature", "properties": { "id": "A38", "label": "Digital Library", "html": "<H3>Digital Library</H3><p>Santiago, Chile</p><p>tags</p><p>image</p><p>image credit</p><p>Digital transformation in library processes</p><p></p>" }, "geometry": { "type": "Point", "coordinates": [ -70.640037884562801, -33.4420379472839 ] } },
{ "type": "Feature", "properties": { "id": "A39", "label": "Ruca", "html": "<H3>Ruca</H3><p>Santiago, Chile</p><p>tags</p><p>image</p><p>image credit</p><p>Social Housing Project</p><p></p>" }, "geometry": { "type": "Point", "coordinates": [ -70.6367425, -33.3742128 ] } },
{ "type": "Feature", "properties": { "id": "A40", "label": "Modular Housing", "html": "<H3>Modular Housing</H3><p>Casablanca, Chile</p><p>tags</p><p>image</p><p>image credit</p><p>The Industrialized Building System Prototype, that can be configured and modified to build low-cost housing. </p><p></p>" }, "geometry": { "type": "Point", "coordinates": [ -71.407589084640506, -33.3190693784749 ] } },
{ "type": "Feature", "properties": { "id": "A41", "label": "Low-carbon housing ", "html": "<H3>Low-carbon housing </H3><p>Chile</p><p>tags</p><p>image</p><p>image credit</p><p>Optimisation and life cycle analysis of energy-efficient solutions.</p><p></p>" }, "geometry": { "type": "Point", "coordinates": [ -70.756760004590603, -33.480801852011702 ] } },
{ "type": "Feature", "properties": { "id": "A42", "label": "Sustainable landscapes pilot project", "html": "<H3>Sustainable landscapes pilot project</H3><p>Sogeram, Sausi, Papua New Guinea</p><p>tags</p><p>image</p><p>image credit</p><p>Community land-use planning with climate-smart land-based livelihoods and climate-smart community infrastructure. Usino-Bundi District of Madang province</p><p></p>" }, "geometry": { "type": "Point", "coordinates": [ 145.434, -5.499 ] } },
{ "type": "Feature", "properties": { "id": "A43", "label": "Women-supported safe houses ", "html": "<H3>Women-supported safe houses </H3><p>Port Moresby, Papua New Guinea</p><p>tags</p><p>image</p><p>image credit</p><p>Providing safe houses and access to  information technology equipment fpr women seeking refuge from violence</p><p></p>" }, "geometry": { "type": "Point", "coordinates": [ 147.150654, -9.478012 ] } },
{ "type": "Feature", "properties": { "id": "A44", "label": "Renewable Energy", "html": "<H3>Renewable Energy</H3><p>Inalegolo, Botswana</p><p>tags</p><p>image</p><p>image credit</p><p>Reneable Energy (Biodiesel)</p><p></p>" }, "geometry": { "type": "Point", "coordinates": [ 22.9717, -23.9505 ] } },
{ "type": "Feature", "properties": { "id": "A45", "label": "BASEhabitat Social Housing", "html": "<H3>BASEhabitat Social Housing</H3><p>Botswana</p><p>tags</p><p>image</p><p>image credit</p><p>Seven design proposals by architecture students  regarding sustainable housing, social housing, building healthy and wellbing community</p><p></p>" }, "geometry": null },
{ "type": "Feature", "properties": { "id": "A46", "label": "Self-Help Housing  (SHHA)", "html": "<H3>Self-Help Housing  (SHHA)</H3><p>Mochudi, Botswana</p><p>tags</p><p>image</p><p>image credit</p><p>nan</p><p></p>" }, "geometry": { "type": "Point", "coordinates": [ 26.1505738600091, -24.396071952325102 ] } },
{ "type": "Feature", "properties": { "id": "A47", "label": "Solar Energy System for Mugurameno School", "html": "<H3>Solar Energy System for Mugurameno School</H3><p>Mugurameno, Zambia</p><p>tags</p><p>image</p><p>image credit</p><p>Solar Energy System. Powering a Remote Zambian Village with Upcycled EV Bus Batteries and a solar energy system </p><p></p>" }, "geometry": { "type": "Point", "coordinates": [ 29.1091152671336, -15.833050064580499 ] } },
{ "type": "Feature", "properties": { "id": "A48", "label": "The Star Homes Project", "html": "<H3>The Star Homes Project</H3><p>Mtwara, Tanzania</p><p>tags</p><p>image</p><p>image credit</p><p>The Star Homes Project provides robust and affordable housing prototypes for a healthy future in Sub-Saharan African conditions</p><p></p>" }, "geometry": { "type": "Point", "coordinates": [ 40.176091901911803, -10.3111518678575 ] } },
{ "type": "Feature", "properties": { "id": "A49", "label": "Affordable housing for teaches ", "html": "<H3>Affordable housing for teaches </H3><p>Córdoba, Argentina</p><p>tags</p><p>image</p><p>image credit</p><p> Five low-cost apartments blocks for school teachers in Córdoba, Argentina with using traditional materials and local labour</p><p></p>" }, "geometry": { "type": "Point", "coordinates": [ -64.189735649420697, -31.4131712650961 ] } },
{ "type": "Feature", "properties": { "id": "A50", "label": "Dimbangombe Ranch", "html": "<H3>Dimbangombe Ranch</H3><p>Hwange, Zimbabwe</p><p>tags</p><p>image</p><p>image credit</p><p>Dimbangombe Ranch, Africa Centre for Holistic Management. Regenerative argriculture.</p><p></p>" }, "geometry": { "type": "Point", "coordinates": [ 25.8768422, -18.18602008 ] } },
{ "type": "Feature", "properties": { "id": "A51", "label": "Community-led housing ", "html": "<H3>Community-led housing </H3><p>Greater Buenos Aires Region, Argentina</p><p>tags</p><p>image</p><p>image credit</p><p>Examination of  the community-led housing practices  of two related Boyash-Roma communities in Argentina and Romania</p><p></p>" }, "geometry": { "type": "Point", "coordinates": [ -58.381559, -34.603684 ] } },
{ "type": "Feature", "properties": { "id": "A52", "label": "INTSABA. A mountain home.", "html": "<H3>INTSABA. A mountain home.</H3><p>eSwatini</p><p>tags</p><p>image</p><p>image credit</p><p>INTSABA Village has been designed to incorporate healthy living, learning, and a social life that will be centered around God.</p><p></p>" }, "geometry": { "type": "Point", "coordinates": [ 31.465866, -26.522503 ] } },
{ "type": "Feature", "properties": { "id": "A53", "label": "Eco-Housing Project", "html": "<H3>Eco-Housing Project</H3><p>Mgidza, Vuvulane, eSwatini</p><p>tags</p><p>image</p><p>image credit</p><p>low-cost, high quality eco housing. Ongoing project. Demo house was built.</p><p></p>" }, "geometry": { "type": "Point", "coordinates": [ 31.877608, -26.074005 ] } },
{ "type": "Feature", "properties": { "id": "A54", "label": "Children Village", "html": "<H3>Children Village</H3><p>Formoso do Araguaia, Brazil</p><p>tags</p><p>image</p><p>image credit</p><p>Children Village In Brazil Is a combination of a day school and boarding school that was designed as an innovative and sustainable rural model of development</p><p></p>" }, "geometry": { "type": "Point", "coordinates": [ -49.906908514192899, -11.974004497949901 ] } },
{ "type": "Feature", "properties": { "id": "A55", "label": "Easy housing project (Low Carbon)", "html": "<H3>Easy housing project (Low Carbon)</H3><p>Beira, Mozambique</p><p>tags</p><p>image</p><p>image credit</p><p>a circular and carbon-negative building concept based on sustainably sourced timber (biobased)</p><p></p>" }, "geometry": { "type": "Point", "coordinates": [ 34.884487, -19.796382 ] } },
{ "type": "Feature", "properties": { "id": "A56", "label": "Buoyant Housing", "html": "<H3>Buoyant Housing</H3><p>Manaus, Brazil</p><p>tags</p><p>image</p><p>image credit</p><p>Providing housing for the impoverished riverside communities of Manaus (Brazil), living in precarious and risky situations. </p><p></p>" }, "geometry": { "type": "Point", "coordinates": [ -60.0292462735474, -3.13002944549549 ] } },
{ "type": "Feature", "properties": { "id": "A57", "label": "Casas Melhoradas", "html": "<H3>Casas Melhoradas</H3><p>Maputo, Mozambique</p><p>tags</p><p>image</p><p>image credit</p><p>a residential development project that aims to improve housing conditions for low-income groups in Maputo</p><p></p>" }, "geometry": { "type": "Point", "coordinates": [ 32.588711, -25.953724 ] } },
{ "type": "Feature", "properties": { "id": "A58", "label": "ARCA House", "html": "<H3>ARCA House</H3><p>Parque da Bocaina, Brazil </p><p>tags</p><p>image</p><p>image credit</p><p>An Earthship-Inspired Dwelling for Brazil's Tropical Forests</p><p></p>" }, "geometry": { "type": "Point", "coordinates": [ -44.612624730582702, -23.028936274752802 ] } },
{ "type": "Feature", "properties": { "id": "A59", "label": "Minha Casa, Minha Vida  (My Home, My Life) program ", "html": "<H3>Minha Casa, Minha Vida  (My Home, My Life) program </H3><p>Brasil, Brazil</p><p>tags</p><p>image</p><p>image credit</p><p>Brazil’s first nationwide house building programme</p><p></p>" }, "geometry": null },
{ "type": "Feature", "properties": { "id": "A60", "label": "Low-cost housing concepts", "html": "<H3>Low-cost housing concepts</H3><p>Windhoek, Namibia</p><p>tags</p><p>image</p><p>image credit</p><p>Low-cost housing concepts: a cooperation project between the INM (Leibniz Institute for New Materials) and the University of Namibia</p><p></p>" }, "geometry": { "type": "Point", "coordinates": [ 17.058603, -22.611352 ] } },
{ "type": "Feature", "properties": { "id": "A61", "label": "The Village-School project", "html": "<H3>The Village-School project</H3><p>Nyae Nyae Village, Namibia</p><p>tags</p><p>image</p><p>image credit</p><p>the Village School Project will improve the infrastructure of the area and improvie access to quality, mother-tongue, culturally sensitive education and will increase school attendance.</p><p></p>" }, "geometry": { "type": "Point", "coordinates": [ 20.369486800013199, -19.7395396306432 ] } },
{ "type": "Feature", "properties": { "id": "A62", "label": "Bucket Revolution", "html": "<H3>Bucket Revolution</H3><p>Monte Cristo, Brazil</p><p>tags</p><p>image</p><p>image credit</p><p>A model of community-based organic waste management. Resident-led composting programme and community gardens. Key communication strategies to bring residents on board the project.</p><p></p>" }, "geometry": { "type": "Point", "coordinates": [ -48.6015689493615, -27.5905588726981 ] } },
{ "type": "Feature", "properties": { "id": "A64", "label": "Favela 3D", "html": "<H3>Favela 3D</H3><p>São José do Rio Preto, Brazil</p><p>tags</p><p>image</p><p>image credit</p><p>A favela (informal settlement) to be completely powered by solar energy. </p><p></p>" }, "geometry": { "type": "Point", "coordinates": [ -49.382774807826799, -20.8032795929368 ] } },
{ "type": "Feature", "properties": { "id": "A65", "label": "The GRAFT Energy Drone Hub network and SOLARKIOSK", "html": "<H3>The GRAFT Energy Drone Hub network and SOLARKIOSK</H3><p>Rwanda, Rwanda</p><p>tags</p><p>image</p><p>image credit</p><p>New concept that would enable the fast and easy implementation of a decentralized drone, energy and education network. The idea is to link the existing functions of the SOLARKIOSK with a drone infrastructure to increase rural connectivity in Africa</p><p></p>" }, "geometry": null },
{ "type": "Feature", "properties": { "id": "A66", "label": "Instituto Socioambiental", "html": "<H3>Instituto Socioambiental</H3><p>São Gabriel da Cachoeira, Brazil</p><p>tags</p><p>image</p><p>image credit</p><p>The Instituto Socioambiental building (local materials, socio-environmental, indigenous design)</p><p></p>" }, "geometry": { "type": "Point", "coordinates": [ -67.070458022360796, -0.139607524079234 ] } },
{ "type": "Feature", "properties": { "id": "A67", "label": "Vissershok Container Classroom", "html": "<H3>Vissershok Container Classroom</H3><p>Durbanville, South Africa</p><p>tags</p><p>image</p><p>image credit</p><p>the Vissershok Container Classroom is a 12 meter recycled container that was converted into an independent classroom for 25 Grade R (age 5-6) students to provide access to education for the children of farm workers and underprivileged communities</p><p></p>" }, "geometry": { "type": "Point", "coordinates": [ 18.5860138, -33.785913 ] } },
{ "type": "Feature", "properties": { "id": "A68", "label": "Off-grid solar project (WeLight)", "html": "<H3>Off-grid solar project (WeLight)</H3><p>Madagascar</p><p>tags</p><p>image</p><p>image credit</p><p>development solar mini-grids to supply electricity</p><p></p>" }, "geometry": { "type": "Point", "coordinates": [ 47.537217890128403, -18.882492554511401 ] } },
{ "type": "Feature", "properties": { "id": "A69", "label": "BipBop programme", "html": "<H3>BipBop programme</H3><p>Marovato, Madagascar</p><p>tags</p><p>image</p><p>image credit</p><p>Innovative off-grid solar energy storage. </p><p></p>" }, "geometry": { "type": "Point", "coordinates": [ 47.594167, -15.245 ] } },
{ "type": "Feature", "properties": { "id": "A70", "label": "Krurungal", "html": "<H3>Krurungal</H3><p>Coolongatta, Australia</p><p>tags</p><p>image</p><p>image credit</p><p>Krurungal is an Aboriginal Corporation that supports and provides  services for Aboriginal and Torres Strait Islander community  in the Gold Coast, south to Tweed Heads and north to Pimpama.</p><p></p>" }, "geometry": { "type": "Point", "coordinates": [ 153.530056936992992, -28.170445274989799 ] } },
{ "type": "Feature", "properties": { "id": "A71", "label": "Rural Housing", "html": "<H3>Rural Housing</H3><p>Northern Territory, Australia</p><p>tags</p><p>image</p><p>image credit</p><p>Climate, housing, energy and Indigenous health: a call to action</p><p></p>" }, "geometry": { "type": "Point", "coordinates": [ 130.884114305825989, -12.5564045363231 ] } },
{ "type": "Feature", "properties": { "id": "A72", "label": "Indigenous Housing", "html": "<H3>Indigenous Housing</H3><p>Northern Territory, Australia</p><p>tags</p><p>image</p><p>image credit</p><p>Housing and health in Indigenous communities: Key issues for housing and health improvement in remote Aboriginal and Torres Strait Islander communities</p><p></p>" }, "geometry": { "type": "Point", "coordinates": [ 130.884114305825989, -12.5564045363231 ] } },
{ "type": "Feature", "properties": { "id": "A73", "label": "Wildfire Manwurrk", "html": "<H3>Wildfire Manwurrk</H3><p>Northern Territory, Australia</p><p>tags</p><p>image</p><p>image credit</p><p>endangered language and way to build community and align with spiritual ways through culture and music</p><p></p>" }, "geometry": { "type": "Point", "coordinates": [ 133.662445546411988, -12.2705543724508 ] } },
{ "type": "Feature", "properties": { "id": "A74", "label": "3D printed houses", "html": "<H3>3D printed houses</H3><p>Mparntwe, Australia</p><p>tags</p><p>image</p><p>image credit</p><p>3D printing for remote housing</p><p></p>" }, "geometry": null },
{ "type": "Feature", "properties": { "id": "A75", "label": "ITHUBA Primary School", "html": "<H3>ITHUBA Primary School</H3><p>Magagula Heights, South Africa</p><p>tags</p><p>image</p><p>image credit</p><p>Primary school as a village</p><p></p>" }, "geometry": null },
{ "type": "Feature", "properties": { "id": "A76", "label": "Self's Solar Market Gardens", "html": "<H3>Self's Solar Market Gardens</H3><p>Benin, South Africa</p><p>tags</p><p>image</p><p>image credit</p><p>the solar-powered irrigation systems</p><p></p>" }, "geometry": null }
]
}
